[{"station":"Central/Western","lat":22.28489089,"lng":114.14442071},
  {"station":"Southern","lat":22.24746092,"lng":114.1601401},
  {"station":"Eastern","lat":22.28288555,"lng":114.2193716},
  {"station":"Kwun Tong","lat":22.3096251,"lng":114.23117417},
  {"station":"Sham Shui Po","lat":22.3302259,"lng":114.15910913},
  {"station":"Kwai Chung","lat":22.35710398,"lng":114.12960136},
  {"station":"Tsuen Wan","lat":22.37174191,"lng":114.11453491},
  {"station":"Tseung Kwan O","lat":22.31764241,"lng":	114.25956137},
  {"station":"Yuen Long","lat":22.44515508,"lng":114.02264888},
  {"station":"Tuen Mun","lat":22.39114326,"lng":113.97672832},
  {"station":"Tung Chung","lat":22.28888887,"lng":113.94365902},
  {"station":"Tai Po","lat":22.45095988,"lng":114.16457022},
  {"station":"Sha Tin","lat":22.37628072,"lng":114.18453161},
  {"station":"North","lat":22.49669723,"lng":	114.12824408},
  {"station":"Tap Mun","lat":22.47131669,"lng":114.3607185},
  {"station":"Causeway Bay","lat":22.28013296,"lng":114.18509009},
  {"station":"Central","lat":22.2818145,"lng":114.15812743},
  {"station":"Mong Kok","lat":22.32261115,"lng":114.16827176}]
